[
  {
    "name": "Ashwin Pharma",
    "address": "HAL Airport Road",
    "coordinates": {
      "latitude": 12.9600171,
      "longitude": 77.6454021
    }
  },
  {
    "name": "Srinivasa Medicals",
    "address": "ITPL Main Road, near Hoodi Circle",
    "coordinates": {
      "latitude": 12.9919585,
      "longitude": 77.7178824
    }
  },
  {
    "name": "Apollo Pharmacy",
    "address": "Horamavu Agara Main Road",
    "coordinates": {
      "latitude": 13.0231103,
      "longitude": 77.6510216
    }
  },
  {
    "name": "Pushyamee",
    "address": "8th Main",
    "coordinates": {
      "latitude": 13.0006252,
      "longitude": 77.5652425
    }
  },
  {
    "name": "S. S. Pharma",
    "address": "Benson Cross Road",
    "coordinates": {
      "latitude": 12.9965785,
      "longitude": 77.6045552
    }
  },
  {
    "name": "Apollo Pharmacy",
    "address": "Arvind Avenue",
    "coordinates": {
      "latitude": 12.9602864,
      "longitude": 77.7136786
    }
  },
  {
    "name": "Trust",
    "address": "Kaggadasspura Main Road",
    "coordinates": {
      "latitude": 12.9851522,
      "longitude": 77.6737584
    }
  },
  {
    "name": "Sri Ganesh Medicals",
    "address": "8th Main Road",
    "coordinates": {
      "latitude": 13.0077106,
      "longitude": 77.5640402
    }
  },
  {
    "name": "Shiva Medicals",
    "address": "27th main",
    "coordinates": {
      "latitude": 12.9180833,
      "longitude": 77.6515737
    }
  },
  {
    "name": "Giri Medicals",
    "address": "13th cross",
    "coordinates": {
      "latitude": 12.9157042,
      "longitude": 77.6505276
    }
  },
  {
    "name": "Health and Glow",
    "address": "Sai Baba Mandira Road",
    "coordinates": {
      "latitude": 12.9701421,
      "longitude": 77.6314807
    }
  },
  {
    "name": "Pushpa Medicals",
    "address": "Whitefield Main Road",
    "coordinates": {
      "latitude": 12.9688671,
      "longitude": 77.7496375
    }
  },
  {
    "name": "The Cash Pharmacy",
    "address": "St. Marks Road, Opp Bishop Cotton Boys School, Srinivas Nagar, Shanthala Nagar, Ashok Nagar",
    "coordinates": {
      "latitude": 12.9683152,
      "longitude": 77.6004368
    }
  },
  {
    "name": "Apollo Pharmacy",
    "address": "17th b main, 6th block",
    "coordinates": {
      "latitude": 12.9373048,
      "longitude": 77.6244506
    }
  },
  {
    "name": "Rakesh Medicals",
    "address": "6th Main",
    "coordinates": {
      "latitude": 12.9336091,
      "longitude": 77.5661398
    }
  },
  {
    "name": "Subramanya Medicals",
    "address": "6th Cross, 6th Main",
    "coordinates": {
      "latitude": 12.9334734,
      "longitude": 77.5661076
    }
  },
  {
    "name": "T R Medicals",
    "address": "2nd Main",
    "coordinates": {
      "latitude": 12.9327937,
      "longitude": 77.5677437
    }
  },
  {
    "name": "Sree Shakthi medicals",
    "address": "24th main hsr 2nd sector",
    "coordinates": {
      "latitude": 12.9076312,
      "longitude": 77.6492635
    }
  },
  {
    "name": "Apollo Pharmacy",
    "address": "24th main hsr 2nd sector",
    "coordinates": {
      "latitude": 12.9081132,
      "longitude": 77.6493238
    }
  },
  {
    "name": "MedPlus",
    "address": "24th main hsr 2nd sector",
    "coordinates": {
      "latitude": 12.9071172,
      "longitude": 77.6491754
    }
  },
  {
    "name": "Apollo Pharmacy",
    "address": "2nd Main Road",
    "coordinates": {
      "latitude": 12.9323571,
      "longitude": 77.5676123
    }
  },
  {
    "name": "Balaji Medicals",
    "address": "Hosur Road",
    "coordinates": {
      "latitude": 12.9275755,
      "longitude": 77.6160908
    }
  },
  {
    "name": "Apollo Pharmacy",
    "address": "19th Main",
    "coordinates": {
      "latitude": 12.9048437,
      "longitude": 77.6445035
    }
  },
  {
    "name": "Priyanka Pharma",
    "address": "Wheeler Road Extension",
    "coordinates": {
      "latitude": 13.0055429,
      "longitude": 77.6252364
    }
  },
  {
    "name": "Pharma Plus",
    "address": "1st Cross Road",
    "coordinates": {
      "latitude": 12.935306,
      "longitude": 77.6306217
    }
  },
  {
    "name": "Rishi Medicals",
    "address": "Vijayanagar Water Tank Road",
    "coordinates": {
      "latitude": 12.974626,
      "longitude": 77.5326702
    }
  },
  {
    "name": "Frank Ross Pharmacy",
    "address": "Chord Road",
    "coordinates": {
      "latitude": 12.9709607,
      "longitude": 77.5370233
    }
  },
  {
    "name": "Ganesh Medicals & General Store",
    "address": "Hosahalli Main Road",
    "coordinates": {
      "latitude": 12.9634823,
      "longitude": 77.5523641
    }
  },
  {
    "name": "Patanjali Arogya Kendra",
    "address": "Vijayanagar Water Tank Road",
    "coordinates": {
      "latitude": 12.9737726,
      "longitude": 77.5360981
    }
  },
  {
    "name": "Kottkkal Arya Vaidya Shala",
    "address": "Vijayanagar Water Tank Road",
    "coordinates": {
      "latitude": 12.9738549,
      "longitude": 77.5359264
    }
  },
  {
    "name": "Vaidya Ratnam Ayurvedic Center",
    "address": "4th Cross",
    "coordinates": {
      "latitude": 12.9785893,
      "longitude": 77.5736371
    }
  },
  {
    "name": "Tejas Ayurvedic Center",
    "address": "10th Main Road",
    "coordinates": {
      "latitude": 12.9727738,
      "longitude": 77.5371175
    }
  },
  {
    "name": "Mohan Medicals",
    "address": "4th Main Road",
    "coordinates": {
      "latitude": 12.9609849,
      "longitude": 77.5269939
    }
  },
  {
    "name": "Apollo Pharmacy",
    "address": "Chidananda Maharashi Ashram Road",
    "coordinates": {
      "latitude": 12.9664142,
      "longitude": 77.5925401
    }
  },
  {
    "name": "Manjula Medicals",
    "address": "Chidananda Maharashi Ashram Road",
    "coordinates": {
      "latitude": 12.9668083,
      "longitude": 77.592647
    }
  },
  {
    "name": "White Lotus",
    "address": "24th Main Road",
    "coordinates": {
      "latitude": 12.9009271,
      "longitude": 77.5859552
    }
  },
  {
    "name": "MedPlus",
    "address": "18th Main Road",
    "coordinates": {
      "latitude": 12.9625591,
      "longitude": 77.6430964
    }
  },
  {
    "name": "Srinidhi Pet Pharma",
    "address": "Ganga Nagar Flyover",
    "coordinates": {
      "latitude": 13.0272029,
      "longitude": 77.5859484
    }
  },
  {
    "name": "Apollo Clinic",
    "address": "100 Feet Road(S K Karim Khan Road)",
    "coordinates": {
      "latitude": 12.9654532,
      "longitude": 77.6417318
    }
  },
  {
    "name": "Fortis Healthworld",
    "address": "Indiranagar Double Road",
    "coordinates": {
      "latitude": 12.9663977,
      "longitude": 77.6372165
    }
  },
  {
    "name": "Sri Raghavendra Medicals",
    "address": "Vijayanagar Water Tank Road",
    "coordinates": {
      "latitude": 12.9742654,
      "longitude": 77.534553
    }
  },
  {
    "name": "Megha Medicals and General Stores",
    "address": "Nagarabhavi Road",
    "coordinates": {
      "latitude": 12.9739047,
      "longitude": 77.5305291
    }
  },
  {
    "name": "Saraswati Medicals",
    "address": "3rd Main Saraswathi nagar",
    "coordinates": {
      "latitude": 12.9724688,
      "longitude": 77.5295366
    }
  },
  {
    "name": "MedPlus",
    "address": "Nagarabhavi Road",
    "coordinates": {
      "latitude": 12.9759953,
      "longitude": 77.5332486
    }
  },
  {
    "name": "Apollo",
    "address": "Subbanna Garden Main road",
    "coordinates": {
      "latitude": 12.964602,
      "longitude": 77.5306989
    }
  },
  {
    "name": "Bangalore Medical",
    "address": "Hosahalli Main Road",
    "coordinates": {
      "latitude": 12.9640156,
      "longitude": 77.5510964
    }
  },
  {
    "name": "star hospital ",
    "address": "Hosahalli Main Road",
    "coordinates": {
      "latitude": 12.9641843,
      "longitude": 77.5502624
    }
  },
  {
    "name": "Murugeshpalaya Medicals",
    "address": "Wind Tunnel Road",
    "coordinates": {
      "latitude": 12.9550419,
      "longitude": 77.6533125
    }
  },
  {
    "name": "Srinivasa Medicals",
    "address": "Wind Tunnel Road",
    "coordinates": {
      "latitude": 12.9554817,
      "longitude": 77.6534635
    }
  },
  {
    "name": "Kashif Medical",
    "address": "Hosahalli Main Road",
    "coordinates": {
      "latitude": 12.9633542,
      "longitude": 77.5487215
    }
  },
  {
    "name": "Mysore Medical",
    "address": "Hosahalli Main Road",
    "coordinates": {
      "latitude": 12.9640984,
      "longitude": 77.5506116
    }
  },
  {
    "name": "Unity Hospital",
    "address": "Hosahalli Main Road",
    "coordinates": {
      "latitude": 12.9626651,
      "longitude": 77.5482596
    }
  },
  {
    "name": "Shifa Medical",
    "address": "Hosahalli Main Road",
    "coordinates": {
      "latitude": 12.9642578,
      "longitude": 77.5489199
    }
  },
  {
    "name": "Srivaari Drug House",
    "address": "1st Cross Road",
    "coordinates": {
      "latitude": 12.9566762,
      "longitude": 77.6550445
    }
  },
  {
    "name": "SLV Medical and Chemist",
    "address": "Anantha Nagar Road",
    "coordinates": {
      "latitude": 12.8353449,
      "longitude": 77.6826672
    }
  },
  {
    "name": "Apollo Pharmacy",
    "address": "PWD Road",
    "coordinates": {
      "latitude": 12.9919663,
      "longitude": 77.6802606
    }
  },
  {
    "name": "Max Pharma",
    "address": "Mahadevapura Main Road",
    "coordinates": {
      "latitude": 12.9970034,
      "longitude": 77.6911331
    }
  },
  {
    "name": "Care Medicals",
    "address": "Kaggadasspura Main Road",
    "coordinates": {
      "latitude": 12.9857434,
      "longitude": 77.6717154
    }
  },
  {
    "name": "Sri Krishna Medicals",
    "address": "Govt. High School Road",
    "coordinates": {
      "latitude": 13.0450933,
      "longitude": 77.5206074
    }
  },
  {
    "name": "MedPlus",
    "address": "Opp South India Bank, Sarjapur Main Road, Kaikondrahalli",
    "coordinates": {
      "latitude": 12.9131442,
      "longitude": 77.6792129
    }
  },
  {
    "name": "Banashankari Medicals",
    "address": "Amruth College Main Road, Varthur Hobli, Kasavanahalli",
    "coordinates": {
      "latitude": 12.9058599,
      "longitude": 77.6756805
    }
  },
  {
    "name": "Trust Chemists & Druggists Ltd",
    "address": "Hosur Rd, Zuzuvadi, Madiwala, 1st Stage, BTM Layout",
    "coordinates": {
      "latitude": 12.9263384,
      "longitude": 77.6168571
    }
  },
  {
    "name": "Krishna Medical & General Stores",
    "address": "CSB Layout, Kasavanahalli, Sarjapur Road",
    "coordinates": {
      "latitude": 12.9079549,
      "longitude": 77.6758087
    }
  },
  {
    "name": "Life Line Medicals & General Stores",
    "address": "Sarjapur Road Bellandur Gate, Bellandur",
    "coordinates": {
      "latitude": 13.0083873,
      "longitude": 77.6961576
    }
  },
  {
    "name": "navyashree medicals & general stores",
    "address": "doddakannehalli carmaleram post, Sarjapura Main Road",
    "coordinates": {
      "latitude": 12.9074727,
      "longitude": 77.6951371
    }
  },
  {
    "name": "Dr. Suresh's Dia Care",
    "address": "11th Main Rd, 3rd Block, Rajaji Nagar",
    "coordinates": {
      "latitude": 12.9898377,
      "longitude": 77.5550568
    }
  },
  {
    "name": "Amrutha Medicals",
    "address": "Dr. Rajkumar Road, 6th Block, 80 Feet Rd, 4th Block, Ramchandrapuram, Rajaji Nagar",
    "coordinates": {
      "latitude": 12.9861471,
      "longitude": 77.5598537
    }
  },
  {
    "name": "Health Shopee by Manjushree Medicals",
    "address": "Mahakavi Kuvempu Road, 2nd Stage, Rajajinagar, Near Varalaxmi Nursing Home, D-Block, Gayatrinagar, Rajaji Nagar",
    "coordinates": {
      "latitude": 12.9988814,
      "longitude": 77.5552883
    }
  },
  {
    "name": "Sri Srinivasa Medicals",
    "address": "Hmt Layout, Near-R T Nagar Bus Depot, R T Nagar, HMT Layout, Dinnur, RT Nagar",
    "coordinates": {
      "latitude": 13.0272204,
      "longitude": 77.593535
    }
  },
  {
    "name": "Nandhi Medical And General Stores",
    "address": "4th Block, Amulya Corner, 3rd Main, 3rd Main Road, 4th Block, Rajaji Nagar",
    "coordinates": {
      "latitude": 12.9882463,
      "longitude": 77.5584271
    }
  },
  {
    "name": "Siddaiah Multi Speciality Clinic And Lab",
    "address": "4th Cross Road, jai bharathnagar",
    "coordinates": {
      "latitude": 13.0023897,
      "longitude": 77.629504
    }
  },
  {
    "name": "Indian Medicals",
    "address": "Kalkere Main road, 1st Cross, B Block, Aecs Layout, Kundalahalli",
    "coordinates": {
      "latitude": 13.0197971,
      "longitude": 77.6782178
    }
  },
  {
    "name": "Vishwas Medicals",
    "address": "2nd Main Road, 7th Block, Banashankari 3rd Stag",
    "coordinates": {
      "latitude": 12.931055,
      "longitude": 77.5418888
    }
  },
  {
    "name": "Pavan Medicals",
    "address": "ITPL Main Road, Kundalahalli, Brookefield,",
    "coordinates": {
      "latitude": 12.995301,
      "longitude": 77.6524627
    }
  },
  {
    "name": "SRS Hitech Diagnostic Laboratory",
    "address": "11th Cross, Mico Main Road, Hosur Rd, CK Nagar, Electronic City",
    "coordinates": {
      "latitude": 12.8701786,
      "longitude": 77.6548332
    }
  },
  {
    "name": "Clumax Diagnostic Center",
    "address": "Ground Floor, 19th Main, Opposite to BMTC bus depot, Sector 1, HSR Layout, 1st Sector, HSR Layout,",
    "coordinates": {
      "latitude": 12.9238866,
      "longitude": 77.6195995
    }
  },
  {
    "name": "Keshava Medicals And General Stores",
    "address": "2nd Main Road, Near-Pizza Hut, Vyalikaval",
    "coordinates": {
      "latitude": 13.0057354,
      "longitude": 77.5763934
    }
  },
  {
    "name": "Sri Ganesh Medicals And Surgicals",
    "address": "8th Main, 18th Cross, H V Nanjundaiah Rd, Malleshwaram",
    "coordinates": {
      "latitude": 13.0081894,
      "longitude": 77.5638484
    }
  },
  {
    "name": "Lahari Medicals",
    "address": "7th Cross Road, B Narayanapura, Mahadevapura",
    "coordinates": {
      "latitude": 12.991518,
      "longitude": 77.6838598
    }
  },
  {
    "name": "Mass pharma",
    "address": "Whitefield Road, R.H.B. colony, Mahadevapura",
    "coordinates": {
      "latitude": 12.9950766,
      "longitude": 77.6967056
    }
  },
  {
    "name": "Deseeya Ayurvedic Pharmacy",
    "address": "HAL II Stage, 18th Main Road, Indira Nagar, Kodihalli,",
    "coordinates": {
      "latitude": 12.9627947,
      "longitude": 77.6419191
    }
  },
  {
    "name": "Shri Siddhanth Pharma",
    "address": "Service Road, Hal 2nd Stage, Near-ESI Hospital, Indiranagar",
    "coordinates": {
      "latitude": 12.9702378,
      "longitude": 77.6356539
    }
  },
  {
    "name": "NationWide Primary Healthcare Services",
    "address": "Whitefield Road,Garudachar Palya, Mahadevapura",
    "coordinates": {
      "latitude": 12.9929014,
      "longitude": 77.7027759
    }
  },
  {
    "name": "Shiva Homoeo Medicals",
    "address": "Sulthanpalya Main Road, 1st Floor,R.T.Nagar Post",
    "coordinates": {
      "latitude": 13.0314172,
      "longitude": 77.6043283
    }
  },
  {
    "name": "MedPlus",
    "address": "Kempapura Main Rd, ayunandana Layout, Hebbal Kempapura",
    "coordinates": {
      "latitude": 13.04937,
      "longitude": 77.5969095
    }
  },
  {
    "name": "Mathru Homoeo Medical",
    "address": "5th Cross,Outer Ring Road, Marathahalli, Behind Venus Bakery Opposite Kalamandir",
    "coordinates": {
      "latitude": 12.9601016,
      "longitude": 77.7002857
    }
  },
  {
    "name": "Sri Tulsi Medicals General Store",
    "address": "2nd Main, 7th Cross, 6th Cross Road, Aswath Nagar, Marathahalli,Karnataka",
    "coordinates": {
      "latitude": 12.9587958,
      "longitude": 77.7026919
    }
  },
  {
    "name": "Sri Lakshmi Pharma And General Store",
    "address": "Raja Building, Munnekolala Last Bengaluru,, Thubarahalli, Marathahalli,Karnataka",
    "coordinates": {
      "latitude": 12.948849,
      "longitude": 77.7078682
    }
  },
  {
    "name": "Ashwini Pharma",
    "address": "D.No.791, Outer Ring Road , Marathahalli Extension, Near to Marathalli bridge",
    "coordinates": {
      "latitude": 12.9546736,
      "longitude": 77.7001836
    }
  },
  {
    "name": "MedPlus",
    "address": "Ganapa Nilaya, SGR Dental College Road, Maruthi Layout, Kasavanahalli Village, Marathahalli, Karnataka",
    "coordinates": {
      "latitude": 12.9486405,
      "longitude": 77.7037644
    }
  },
  {
    "name": "Kalleshwara Medicals",
    "address": "Shop No Opposite to SLN Temple, Munnekolala, Post,, 1126/2, 4th Main Rd, Marathahalli, Karnataka",
    "coordinates": {
      "latitude": 12.9623251,
      "longitude": 77.7097014
    }
  },
  {
    "name": "Trust Chemists & Druggists",
    "address": "SGR Dental College Rd, Belandur, Marathahalli, Karnataka",
    "coordinates": {
      "latitude": 12.9482486,
      "longitude": 77.7047648
    }
  },
  {
    "name": "Greenhouse Pharma",
    "address": "Tulasi Theatre Road, Marathahalli Village, Marathahalli, Karnataka",
    "coordinates": {
      "latitude": 12.9539548,
      "longitude": 77.6979312
    }
  },
  {
    "name": "Vignesh medicals",
    "address": "Shop No 5 Varthur Main Road, Ramagondanahalli, Whitefield, Karnataka",
    "coordinates": {
      "latitude": 12.957171,
      "longitude": 77.7395889
    }
  },
  {
    "name": "Lakshmi Medicals",
    "address": "Varthur Main Road, Marathahalli, Marathahalli, Marathahalli Village, Karnataka",
    "coordinates": {
      "latitude": 12.956443,
      "longitude": 77.6964124
    }
  },
  {
    "name": "Rajeshwari Pharma Shop",
    "address": "Varthur Main Rd, Thubarahalli, Brookefield, Karnataka",
    "coordinates": {
      "latitude": 12.9556301,
      "longitude": 77.7222569
    }
  },
  {
    "name": "Padma Medicals",
    "address": "CMH Road, 100 Feet Road, Indira Nagar II Stage, Hoysala Nagar, Indira Nagar",
    "coordinates": {
      "latitude": 12.9785445,
      "longitude": 77.640549
    }
  },
  {
    "name": "Ram speciality clinic",
    "address": "Munnekollal Main Rd, Munekollal, Karnataka",
    "coordinates": {
      "latitude": 12.9670599,
      "longitude": 77.7131214
    }
  },
  {
    "name": "Patanjali Prakritika Bazaar Shop",
    "address": "Munnekollal Main Rd, Munnekollal, Karnataka",
    "coordinates": {
      "latitude": 12.949095,
      "longitude": 77.7078158
    }
  },
  {
    "name": "Slv Medical Store",
    "address": "Thubarahalli, Munnekollal,Karnataka",
    "coordinates": {
      "latitude": 12.9487633,
      "longitude": 77.7078643
    }
  },
  {
    "name": "Shree Vet Life Pharma",
    "address": "Bellary Road, Opposite Veterinary College, Lakshmayya Layout, Vishveshvaraiah Nagar",
    "coordinates": {
      "latitude": 13.0277184,
      "longitude": 77.5860886
    }
  },
  {
    "name": "OM Shakthi Medicals & General Stores",
    "address": "6th Cross, 8th Cross, 13th Main Rd, Mathikere, HMT Layout, Yeshwanthpur, Karnataka",
    "coordinates": {
      "latitude": 13.0291434,
      "longitude": 77.5579617
    }
  },
  {
    "name": "Popular Medical And General",
    "address": "Dinnur Main Road,  Dinnur Main Road, Ex Servicemen Colony,RT Nagar",
    "coordinates": {
      "latitude": 13.02454,
      "longitude": 77.5950447
    }
  },
  {
    "name": "Medicure Pharma",
    "address": "Survey Number 158,MarathHalli Post, Vignana Nagar Main Road, Ramaiahreddy Colony, Malleshpalya, Basavanagar, Karnataka",
    "coordinates": {
      "latitude": 12.9720229,
      "longitude": 77.6803767
    }
  },
  {
    "name": "Trust Chemists Druggists",
    "address": "RT Nagar Main Road,  80 Feet Main Road, P&T Colony",
    "coordinates": {
      "latitude": 13.0237176,
      "longitude": 77.5928768
    }
  },
  {
    "name": "Shriniwas Medicals",
    "address": "34th Cross Road,Jaya Nagar",
    "coordinates": {
      "latitude": 12.9257866,
      "longitude": 77.5861651
    }
  },
  {
    "name": "Sudhir Medicals",
    "address": "36 Cross, near Nethradama Hospital, 7th Block, Jayanagar,",
    "coordinates": {
      "latitude": 12.9243163,
      "longitude": 77.5770288
    }
  },
  {
    "name": "J S Homoeo House",
    "address": "Near Bowring Hospital , hospital Road , 22/2, Central St, Shivaji Nagar",
    "coordinates": {
      "latitude": 12.982224,
      "longitude": 77.6029281
    }
  },
  {
    "name": "V L Nathan & Co",
    "address": "Quadrant Road, Sulthangunta, Shivaji Nagar",
    "coordinates": {
      "latitude": 12.9855813,
      "longitude": 77.6071086
    }
  },
  {
    "name": "Nathans Vet Pharma Centre",
    "address": "Quadrant Road, Shivaji Nagar, Near Taj Hotel, Shanthala Nagar, Ashok Nagar",
    "coordinates": {
      "latitude": 12.9762816,
      "longitude": 77.5991019
    }
  },
  {
    "name": "Mahaveer Ayur & Homoeo",
    "address": "Opposite Bowring Hospital, Lady Curzon Rd, Tasker Town, Shivaji Nagar",
    "coordinates": {
      "latitude": 12.9813318,
      "longitude": 77.6041058
    }
  },
  {
    "name": "Patanjali Chikitsalayas",
    "address": "Krishna Rajendra Road,Yadiyur,7th Block, Jayanagara",
    "coordinates": {
      "latitude": 12.9308168,
      "longitude": 77.5739459
    }
  },
  {
    "name": "Gururaja Pharmacy",
    "address": "Tank Bund Rd, RK Puram, Gandhi Nagar",
    "coordinates": {
      "latitude": 12.9781121,
      "longitude": 77.5739587
    }
  },
  {
    "name": "Balaji Vaidyasala",
    "address": "Central Square Complex, 47, Central Street, Tasker Town, Shivaji Nagar, Tasker Town, Shivaji Nagar",
    "coordinates": {
      "latitude": 12.9813797,
      "longitude": 77.6029956
    }
  },
  {
    "name": "T. K. Diagnostic Centre",
    "address": "1st Floor, NG Chambers, Venkataswamy Naidu Rd, Shivaji Nagar",
    "coordinates": {
      "latitude": 12.9843238,
      "longitude": 77.5984752
    }
  },
  {
    "name": "elbitdiagnostics",
    "address": "Indian Express Building, 3rd Floor,, Queens Rd, Vasanth Nagar",
    "coordinates": {
      "latitude": 12.9833669,
      "longitude": 77.5966639
    }
  },
  {
    "name": "Al Shifa Unani & Ayurvedic Dawa Khana",
    "address": "Charminar Masjid Road, Near-Russel Market, Shivaji Nagar, Sulthangunta, Shivaji Nagar",
    "coordinates": {
      "latitude": 12.9873157,
      "longitude": 77.6059871
    }
  },
  {
    "name": "Medinova",
    "address": "Infantry Road, Shivaji Nagar",
    "coordinates": {
      "latitude": 12.9816041,
      "longitude": 77.6011061
    }
  },
  {
    "name": "Sundeep Medicals",
    "address": "Brigade Road, Richmond Town, Shanthala Nagar, Ashok Nagar, Shanthala Nagar, Ashok Nagar",
    "coordinates": {
      "latitude": 12.9674206,
      "longitude": 77.6058454
    }
  },
  {
    "name": "Hitesh Medicals & General Stor",
    "address": "Brigade Rd, Shanthala Nagar, Ashok Nagar",
    "coordinates": {
      "latitude": 12.9713618,
      "longitude": 77.6062443
    }
  },
  {
    "name": "Bangalore Fetal Medicine Centre",
    "address": "2nd Floor, Rich Homes, Richmond Road, Shanthala Nagar, Ashok Nagar, Shanthala Nagar, Ashok Nagar",
    "coordinates": {
      "latitude": 12.9658632,
      "longitude": 77.5998808
    }
  },
  {
    "name": "Sai Aruna Medicals",
    "address": "Shivalingaiah Shopping Complex, BDA Main Rd, Murugesh Pallya, Ananda Puram, Jeevanbheemanagar",
    "coordinates": {
      "latitude": 12.9643196,
      "longitude": 77.657532
    }
  },
  {
    "name": "Sri Vidhya Medicals General Store",
    "address": "10th Main, HAL 3rd Stage, Jeevan Bima Nagar Main Rd, DOS Colony, Jeevanbheemanagar",
    "coordinates": {
      "latitude": 12.9679122,
      "longitude": 77.6517504
    }
  },
  {
    "name": "Sri Sai Ram Medicals",
    "address": "NR Colony Main Rd, Jeevanbheemanagar",
    "coordinates": {
      "latitude": 12.9650762,
      "longitude": 77.6574876
    }
  },
  {
    "name": "ISRO Dispensary",
    "address": "DOS Colony, Jeevanbheemanagar",
    "coordinates": {
      "latitude": 12.9661551,
      "longitude": 77.656368
    }
  },
  {
    "name": "Devi Medical",
    "address": "Near To J. B. Nagar Bus Stand, NR Colony Main Rd, J. B. Nagar, Jeevanbheemanagar",
    "coordinates": {
      "latitude": 12.964938,
      "longitude": 77.6572798
    }
  },
  {
    "name": "Trust Pharmacy",
    "address": "Sampige Road",
    "coordinates": {
      "latitude": 12.9919478,
      "longitude": 77.5708501
    }
  },
  {
    "name": "Pushyamee Medicals",
    "address": "8th Main Rd, Malleshwaram",
    "coordinates": {
      "latitude": 13.0008545,
      "longitude": 77.5631699
    }
  },
  {
    "name": "Gururaja Pharma",
    "address": "Tank Bund Rd, RK Puram, Gandhi Nagar",
    "coordinates": {
      "latitude": 12.9858304,
      "longitude": 77.5708651
    }
  },
  {
    "name": "Brindhavan pharma",
    "address": "1st Main Road, Jai Bheema Nagar, Seshadripuram",
    "coordinates": {
      "latitude": 12.9853462,
      "longitude": 77.5708101
    }
  },
  {
    "name": "Megha Medicals",
    "address": "12th Cross, Kodandarampura, Near-Prasidh Clinic, Malleshwaram",
    "coordinates": {
      "latitude": 13.0023294,
      "longitude": 77.5719173
    }
  },
  {
    "name": "Sri Ganesh Medicals",
    "address": "8th Main, 18th Cross, H V Nanjundaiah Rd",
    "coordinates": {
      "latitude": 13.0078415,
      "longitude": 77.5617719
    }
  },
  {
    "name": "Nandhi Medicals",
    "address": "46th cross, Rajajinagar 4th Block",
    "coordinates": {
      "latitude": 12.9883267,
      "longitude": 77.5549712
    }
  },
  {
    "name": "Sri Venkateshwara Medical & General Store",
    "address": "3rd Block, Rajajinagar",
    "coordinates": {
      "latitude": 12.9898567,
      "longitude": 77.5542305
    }
  },
  {
    "name": "Amrutha Medicals",
    "address": "Dr Rajkumar Road, Rajajinagar",
    "coordinates": {
      "latitude": 12.9862636,
      "longitude": 77.5575477
    }
  },
  {
    "name": "Sri Ranga Medicals",
    "address": "2nd stage a.g,b layout, Yeshwanthpur Industrial Suburb, Mahalakshmi Layout,",
    "coordinates": {
      "latitude": 13.014751,
      "longitude": 77.5490654
    }
  },
  {
    "name": "Sri Lakshmi Venkateshwara Medicals",
    "address": "BEML Main Rd, GM Palya, C V Raman Nagar",
    "coordinates": {
      "latitude": 12.9886463,
      "longitude": 77.4880192
    }
  },
  {
    "name": "Prasad Medicals",
    "address": "10th Main, 2nd Block, Rajajinagar",
    "coordinates": {
      "latitude": 12.9906244,
      "longitude": 77.5633161
    }
  },
  {
    "name": "Sri Ganesh Pharma",
    "address": "2nd Main Road valmikinagar Mysore Road, Ramachandra Agrahara, Azad Nagar",
    "coordinates": {
      "latitude": 12.9559132,
      "longitude": 77.5561779
    }
  },
  {
    "name": "Royal Medicals",
    "address": "Nehru Road, Kullappa Road, Near-Kullapa Circle, Kammanahalli, PNS Layout, Subbayianiah Palyam, Banswadi",
    "coordinates": {
      "latitude": 13.013929,
      "longitude": 77.6389286
    }
  },
  {
    "name": "Fair Deal Pharma (Medkart)",
    "address": "P.o box 7182,1st floor, sultanpet,",
    "coordinates": {
      "latitude": 12.9671955,
      "longitude": 77.5736828
    }
  },
  {
    "name": "Omkar Medicals",
    "address": "3rd Cross, 1st Main Road, C.K Nagar, Electronic City, Chennakeshava Nagar, Hosa Road, Pragathi Nagar, Electronic City",
    "coordinates": {
      "latitude": 12.870394,
      "longitude": 77.6559601
    }
  },
  {
    "name": "Bharath Medicals",
    "address": "6th A Main, Mahalakshmi Layout, 2nd Stage",
    "coordinates": {
      "latitude": 13.0082692,
      "longitude": 77.5441674
    }
  },
  {
    "name": "Lions Airport City Medicals",
    "address": "Munnekolala Varthur Road",
    "coordinates": {
      "latitude": 12.9557846,
      "longitude": 77.7050853
    }
  },
  {
    "name": "Sri Durga Medicals",
    "address": "Immadihalli Main Rd, Vinayaka Layout, Whitefield",
    "coordinates": {
      "latitude": 13.0120076,
      "longitude": 77.629801
    }
  },
  {
    "name": "Shakti Medicals & Generals",
    "address": "10th Main, BSK 1st Stage, Banashankari Stage 1, Banashankari,",
    "coordinates": {
      "latitude": 12.9383428,
      "longitude": 77.5598834
    }
  },
  {
    "name": "MedPlus",
    "address": "1st A Main Rd, Whitefield",
    "coordinates": {
      "latitude": 12.9700147,
      "longitude": 77.7334952
    }
  },
  {
    "name": "Apollo Pharmacy",
    "address": "7th Main, Near Panchami Chats, 80 Feet Rd, Banashankari Stage I, Srinivasnagar, Banashankari",
    "coordinates": {
      "latitude": 12.9383175,
      "longitude": 77.5549076
    }
  },
  {
    "name": "Central Lab",
    "address": "Lalbagh Road",
    "coordinates": {
      "latitude": 12.9644242,
      "longitude": 77.5968789
    }
  },
  {
    "name": "Isha Diagnostics",
    "address": "16th Cross, Sampige Road,",
    "coordinates": {
      "latitude": 13.0058891,
      "longitude": 77.571338
    }
  },
  {
    "name": "Kanva Diagnostics",
    "address": "Dr Rajkumar Rd, 4N Block",
    "coordinates": {
      "latitude": 12.9869612,
      "longitude": 77.5602264
    }
  },
  {
    "name": "Rajkumar Diagnostics",
    "address": "14th Cross Rd, Thimaiah Garden, Devara Jeevanahalli",
    "coordinates": {
      "latitude": 13.0192775,
      "longitude": 77.5968129
    }
  },
  {
    "name": "Nisarga Ayurvedic Medicine Research Centre",
    "address": "10th Main, 13th Cross, Near-Brand Factory, Wilson Garden",
    "coordinates": {
      "latitude": 12.9469375,
      "longitude": 77.5981349
    }
  },
  {
    "name": "Mahaveer medicals",
    "address": "11th Cross, Ashok Nagar, Near-Vidya Peeta Circle, Banashankari 1st Stage",
    "coordinates": {
      "latitude": 12.9360789,
      "longitude": 77.5601504
    }
  },
  {
    "name": "Upadhya Ayurveda Bhandara",
    "address": "26th Main Road, 4th Block, Jayanagar",
    "coordinates": {
      "latitude": 12.9258133,
      "longitude": 77.5936851
    }
  },
  {
    "name": "Prashanth Pharma",
    "address": "rajajinagar",
    "coordinates": {
      "latitude": 12.9348997,
      "longitude": 77.573964
    }
  },
  {
    "name": "Dr. Suresh's Dia Care",
    "address": "11th Main Rd, 3rd Block, Rajaji Nagar",
    "coordinates": {
      "latitude": 12.9853927,
      "longitude": 77.5383552
    }
  },
  {
    "name": "Amrutha Medicals",
    "address": "Dr. Rajkumar Road, 6th Block, 80 Feet Rd, 4th Block, Ramchandrapuram",
    "coordinates": {
      "latitude": 12.9851133,
      "longitude": 77.5390188
    }
  },
  {
    "name": "Star Homeopathy",
    "address": "34th Cross Road,  4th Block, Jayanagara Jaya Nagar",
    "coordinates": {
      "latitude": 12.9267767,
      "longitude": 77.5838359
    }
  },
  {
    "name": "Sridhar Medicals",
    "address": ",2nd Main Rd, Malleshwaram",
    "coordinates": {
      "latitude": 12.9877039,
      "longitude": 77.5530939
    }
  },
  {
    "name": "Himalaya Health Care",
    "address": "34th Cross Road, 34th T Block East, Pattabhirama Nagar",
    "coordinates": {
      "latitude": 12.9255939,
      "longitude": 77.5861537
    }
  },
  {
    "name": "Health Shopee by Manjushree Medicals",
    "address": "Mahakavi Kuvempu Road, 2nd Stage, Rajajinagar",
    "coordinates": {
      "latitude": 12.9985585,
      "longitude": 77.5476618
    }
  },
  {
    "name": "Lifeken Medicines",
    "address": "36 A Cross Road, 4th T Block East, Jayanagara",
    "coordinates": {
      "latitude": 12.9231418,
      "longitude": 77.590042
    }
  },
  {
    "name": "Sri Swaraj Medicals",
    "address": "12th Main Road, Bank Colony Circle, Beside NIIT, BSK 1st Stage, 80 Feet Rd, Banashankari",
    "coordinates": {
      "latitude": 12.9385698,
      "longitude": 77.5531314
    }
  },
  {
    "name": "Sri Srinivasa Medicals",
    "address": "RT Nagar Main Road",
    "coordinates": {
      "latitude": 13.0216774,
      "longitude": 77.5927881
    }
  },
  {
    "name": "Venkateshwara Medicals",
    "address": "Subramanyanagar,2",
    "coordinates": {
      "latitude": 13.0053426,
      "longitude": 77.5542101
    }
  },
  {
    "name": "Nandhi Medicals",
    "address": "4th Block, Rajaji Nagar",
    "coordinates": {
      "latitude": 12.9887964,
      "longitude": 77.5555474
    }
  },
  {
    "name": "Megha Medicals",
    "address": "12th Cross, Kodandarampura, Near-Prasidh Clinic, Malleshwaram",
    "coordinates": {
      "latitude": 13.0026859,
      "longitude": 77.5738983
    }
  },
  {
    "name": "Janhavi Medicals Malleshwaram",
    "address": "Vyalikaval, 2nd Main, Opposite-Rajesh Hotel, Sadashiv Nagar",
    "coordinates": {
      "latitude": 13.0019448,
      "longitude": 77.5716235
    }
  },
  {
    "name": "K C G Pharma And Generals",
    "address": "1, 3rd Cross Rd, Malleshwaram",
    "coordinates": {
      "latitude": 13.0020076,
      "longitude": 77.5713914
    }
  },
  {
    "name": "Sunrise Diagnostic Laboratory",
    "address": "BMS Plaza, First Floor, Opposite Kathriguppe Water Tank, 3rd Cross Rd, 1st Block, Banashankari 3rd Stage, Banashankari,",
    "coordinates": {
      "latitude": 12.9302815,
      "longitude": 77.5467741
    }
  },
  {
    "name": "Medall Clumax Diagnostics",
    "address": "Gayathri Devi Park Extension, Kodandarampura",
    "coordinates": {
      "latitude": 13.005882,
      "longitude": 77.5761593
    }
  },
  {
    "name": "Diabetacare",
    "address": "Venkateshwara Complex, 80 Feet Main Road, 6th Block, Venkappa Garden, Koramangala, Venkappa Garden, Ejipura",
    "coordinates": {
      "latitude": 12.9398696,
      "longitude": 77.6257338
    }
  },
  {
    "name": "Excel Diagnostics",
    "address": "7th Cross, Venkatapura Main Rd, 1st Block Koramangala, HSR Layout 5th Sector",
    "coordinates": {
      "latitude": 12.9217959,
      "longitude": 77.6337167
    }
  },
  {
    "name": "Pathocon Diagnostics",
    "address": "1st 'R' Block, Near Mahalakshmi Layout Entrance",
    "coordinates": {
      "latitude": 13.0064642,
      "longitude": 77.5488867
    }
  },
  {
    "name": "Prakash Medicals",
    "address": "HAL 2nd Stage, Indira Nagar, 80 Feet Road, Next To Bata Showroom",
    "coordinates": {
      "latitude": 12.9730389,
      "longitude": 77.6468244
    }
  },
  {
    "name": "Anand Diagnostic Laboratory",
    "address": "16th main, 3rd Block, Koramangala, Bengaluru",
    "coordinates": {
      "latitude": 12.9301422,
      "longitude": 77.6231727
    }
  },
  {
    "name": "Ruth Medicals",
    "address": "Koramangala BDA, 6th B Cross Road, Koramangala 3 Block, Koramangala",
    "coordinates": {
      "latitude": 12.9317312,
      "longitude": 77.6230979
    }
  },
  {
    "name": "Maxwell Pharma",
    "address": "BDA Complex, Koramangala 4th Block, Koramangala",
    "coordinates": {
      "latitude": 12.9340694,
      "longitude": 77.625222
    }
  },
  {
    "name": "Roots Advanced Hair Transplant Center",
    "address": "12th cross, Palace Guttahalli main road, Malleshwaram",
    "coordinates": {
      "latitude": 13.0022281,
      "longitude": 77.5739218
    }
  },
  {
    "name": "Vijaynagar Orthopedic Center",
    "address": ", 5th main, 8th Cross Rd, Govindaraja Nagar Ward, Anubhav Nagar, Vijayanagar",
    "coordinates": {
      "latitude": 12.9757744,
      "longitude": 77.5421307
    }
  },
  {
    "name": "Anand Diagnostic Laboratory",
    "address": ", Balu Arcade, 8th Main Road,19th Cross, CHBS Layout, Vijayanagar, CHBS Layout, MC Layout, Vijayanagar, Bengaluru, Karnataka 560040\"",
    "coordinates": {
      "latitude": 12.9744268,
      "longitude": 77.5377158
    }
  },
  {
    "name": "Kaya Skin Bar",
    "address": "Sampige Road",
    "coordinates": {
      "latitude": 12.9917005,
      "longitude": 77.5706529
    }
  },
  {
    "name": "Sri Balaji Medicals",
    "address": "80 Feet Road, Koramangala 1st Block, HSR Layout",
    "coordinates": {
      "latitude": 12.9495697,
      "longitude": 77.6182599
    }
  },
  {
    "name": "Health Heal Physio",
    "address": "4th 'A' cross, 1st Main Road Vijayanagar, Club Ave, Vijay nagar, Hosahalli Extension, Vijayanagar",
    "coordinates": {
      "latitude": 12.9675638,
      "longitude": 77.539088
    }
  },
  {
    "name": "Suprith Diagnostic Centre",
    "address": "Nanjappa Reddy Colony, 1st Main Rd, K. N. Extension, Kamla Nehru. Extension, Yeshwanthpur",
    "coordinates": {
      "latitude": 13.0238592,
      "longitude": 77.5564245
    }
  },
  {
    "name": "Khema Medical Corporation",
    "address": "9k, Vijaya Nagar, Vijaya Nagar, MRCR Layout, MC Layout",
    "coordinates": {
      "latitude": 12.9699062,
      "longitude": 77.5331512
    }
  },
  {
    "name": "Jailaxmi Medical Store",
    "address": "Triveni Road",
    "coordinates": {
      "latitude": 13.0210205,
      "longitude": 77.5586533
    }
  },
  {
    "name": "Mukesh Medical",
    "address": "7th Main Rd, Hoshalli Extension, Stage 1, Vijayanagar",
    "coordinates": {
      "latitude": 12.9715348,
      "longitude": 77.5439059
    }
  },
  {
    "name": "Sri Ganesh Gandhi Medicals",
    "address": "Chbs Layout, 8th Main, Vijaya Nagar, CHBS Layout, MC Layout,",
    "coordinates": {
      "latitude": 12.973491,
      "longitude": 77.5374834
    }
  },
  {
    "name": "Sri Harsha Medical & General Stores",
    "address": "Peenya 2nd Stage, Thigalarapalya Main Rd, Balaji Nagar",
    "coordinates": {
      "latitude": 13.0141601,
      "longitude": 77.4903591
    }
  },
  {
    "name": "Arvind Homoeo Medicals",
    "address": "1st Floor, 14th Main, Next To Kodandaram Temple, Vijayanagar, SBI Staff Colony, Hoshalli Extension, RPC Layout",
    "coordinates": {
      "latitude": 12.9703808,
      "longitude": 77.5375679
    }
  },
  {
    "name": "Johnson & Smith Co.",
    "address": "3rd Stage, Peenya Industrial Estate",
    "coordinates": {
      "latitude": 13.0197657,
      "longitude": 77.4983441
    }
  },
  {
    "name": "Careongo Pharmacy Teachers Colony",
    "address": "6th cross Rd, Teachers Colony, Nagarbhavi",
    "coordinates": {
      "latitude": 12.9705987,
      "longitude": 77.5153346
    }
  },
  {
    "name": "Shree Lakshmi Medicals",
    "address": "shop no 9, wilson garden society, opp.RBI layout, kothanur main road, j.p nagar 7th phase,",
    "coordinates": {
      "latitude": 12.8864701,
      "longitude": 77.5867609
    }
  },
  {
    "name": "Durga Medicals",
    "address": "9th Cross, Near-Oxford Collage, J P Nagar 1st Phase",
    "coordinates": {
      "latitude": 12.9105534,
      "longitude": 77.5811091
    }
  },
  {
    "name": "Sri Balaji medicals",
    "address": "73 24th Main End Puttenahalli J. P Nagar 7th Phase,",
    "coordinates": {
      "latitude": 12.9314177,
      "longitude": 77.5913754
    }
  },
  {
    "name": "Trinity Diagnostic And Imaging Research Centre",
    "address": "9th Cross Road",
    "coordinates": {
      "latitude": 12.9099922,
      "longitude": 77.5926844
    }
  },
  {
    "name": "Ritecure Pharmacy",
    "address": "2nd cross near hp petrol pump, Govindaraja Nagar Ward, Widia Layout, Vijayanagar",
    "coordinates": {
      "latitude": 12.9608763,
      "longitude": 77.5306651
    }
  },
  {
    "name": "Trust Chemist and Drugs",
    "address": "Thubarahalli, Whitefield",
    "coordinates": {
      "latitude": 12.9553005,
      "longitude": 77.7181579
    }
  },
  {
    "name": "Banglore Lions Service Blood Bank",
    "address": "Jain Hospital, Millers Road, Vasanth Nagar, Vasanth Nagar",
    "coordinates": {
      "latitude": 13.0240558,
      "longitude": 77.6240521
    }
  },
  {
    "name": "Sree Manjunatha Medicals",
    "address": "Shop No.2,T.C.Playa, Opp.Bharath Petroleum, Sonnathammanahalli K.R.Puram, Anandapura, Battarahalli",
    "coordinates": {
      "latitude": 13.0241512,
      "longitude": 77.6899413
    }
  },
  {
    "name": "Kottakil Arya Vaidya Sala",
    "address": "Kaggadasapura Main Road, Varsova Layout, Kaggadasapura",
    "coordinates": {
      "latitude": 12.9857338,
      "longitude": 77.6684774
    }
  },
  {
    "name": "Ayushman Panchakarma Therapy Centre",
    "address": "24h Cross Road, Aishwarya Lake View Residency, Kaggadasapura",
    "coordinates": {
      "latitude": 12.9818585,
      "longitude": 77.677679
    }
  },
  {
    "name": "Focus Diagnostics Centre & Speciality Clinics",
    "address": "Outer Ring Road, Sector 6, HSR Layout",
    "coordinates": {
      "latitude": 12.9159162,
      "longitude": 77.6285313
    }
  },
  {
    "name": "Anand Diagnostic Laboratory",
    "address": "16th Main Road, BTM Layout, IInd Stage, Near Udupi Garden Hotel, BTM 2nd Stage, Kuvempu Nagar, Stage 2, BTM Layout",
    "coordinates": {
      "latitude": 12.9162822,
      "longitude": 77.6130103
    }
  },
  {
    "name": "Shyamala Medicals",
    "address": "Amruth Nagar Main Road",
    "coordinates": {
      "latitude": 12.8844038,
      "longitude": 77.5666691
    }
  },
  {
    "name": "Bangalore Fine Chemicals",
    "address": "No.19/1, 80 Feet Road, Kengeri",
    "coordinates": {
      "latitude": 12.9243833,
      "longitude": 77.4867217
    }
  },
  {
    "name": "Yeshakeerthi Chemicals",
    "address": "194/1, Muneshwara Nagar, Behind Mmn Complex, Kattigenahalli Gate, Muneshwara Nagar, Hosapalaya, Garvebhavi Palya",
    "coordinates": {
      "latitude": 12.8987251,
      "longitude": 77.6393218
    }
  },
  {
    "name": "MedPlus",
    "address": "Pipeline Road",
    "coordinates": {
      "latitude": 12.9702038,
      "longitude": 77.5462546
    }
  },
  {
    "name": "Unique Medicals",
    "address": "14th Main Road",
    "coordinates": {
      "latitude": 12.9570571,
      "longitude": 77.5323251
    }
  },
  {
    "name": "MedPlus",
    "address": "Dr. Vishnuvardhan Road",
    "coordinates": {
      "latitude": 12.9072768,
      "longitude": 77.5469171
    }
  },
  {
    "name": "Lalitha Medicals",
    "address": "Konanakunte-Uttarahalli Road",
    "coordinates": {
      "latitude": 12.9055817,
      "longitude": 77.5428078
    }
  },
  {
    "name": "Annapurna Drug House",
    "address": "Dr. Vishnuvardhan Road",
    "coordinates": {
      "latitude": 12.9058435,
      "longitude": 77.5429494
    }
  },
  {
    "name": "Himalaya Medicals",
    "address": "Dr. Vishnuvardhan Road",
    "coordinates": {
      "latitude": 12.9087185,
      "longitude": 77.5484931
    }
  },
  {
    "name": "SS Pharma & Surgicals",
    "address": "11th Cross Road",
    "coordinates": {
      "latitude": 13.0017154,
      "longitude": 77.5507797
    }
  },
  {
    "name": "Apollo Pharmacy",
    "address": "1st Main Road",
    "coordinates": {
      "latitude": 13.0257868,
      "longitude": 77.6274472
    }
  },
  {
    "name": "Religare Pharmacy",
    "address": "Banaswadi Main Road",
    "coordinates": {
      "latitude": 13.0132508,
      "longitude": 77.6497633
    }
  },
  {
    "name": "Guru Raghavendra Medical Store",
    "address": "Garden School Road",
    "coordinates": {
      "latitude": 12.9093132,
      "longitude": 77.5515743
    }
  },
  {
    "name": "Sridhar Medicals",
    "address": "Subramanyapura Main Road, Bendre Nagar",
    "coordinates": {
      "latitude": 12.9155219,
      "longitude": 77.5617083
    }
  },
  {
    "name": "Sri Lakshmi Medicals",
    "address": "23rd main, Ramana Road, Ayodhya Nagar",
    "coordinates": {
      "latitude": 12.9006451,
      "longitude": 77.5866036
    }
  },
  {
    "name": "MedPlus",
    "address": "24th main, JP Nagar, 5th Phase",
    "coordinates": {
      "latitude": 12.9005012,
      "longitude": 77.5859088
    }
  },
  {
    "name": "Prem Pharmacy",
    "address": "22nd B Main Road",
    "coordinates": {
      "latitude": 12.9006994,
      "longitude": 77.5872673
    }
  },
  {
    "name": "Apollo Pharmacy",
    "address": "Sai Baba Temple Road",
    "coordinates": {
      "latitude": 12.9509966,
      "longitude": 77.7156459
    }
  },
  {
    "name": "Apollo Pharmacy",
    "address": "Subbrama Chetty Road",
    "coordinates": {
      "latitude": 12.9379662,
      "longitude": 77.568428
    }
  },
  {
    "name": "Sapthagiri Medicals",
    "address": "Lalbagh Road",
    "coordinates": {
      "latitude": 12.9553721,
      "longitude": 77.5855419
    }
  },
  {
    "name": "Fame Balaji",
    "address": "2nd cross",
    "coordinates": {
      "latitude": 12.978176,
      "longitude": 77.6429501
    }
  },
  {
    "name": "MedPlus",
    "address": "7th Main, ESI Hospital Road",
    "coordinates": {
      "latitude": 12.9715511,
      "longitude": 77.635481
    }
  },
  {
    "name": "Janani Clinic",
    "address": "Panathur Main Road",
    "coordinates": {
      "latitude": 12.9386583,
      "longitude": 77.6968715
    }
  },
  {
    "name": "Netmeds",
    "address": "Amruth Nagar Main Road",
    "coordinates": {
      "latitude": 12.873081,
      "longitude": 77.5666966
    }
  },
  {
    "name": "Best Medical and General Store",
    "address": "Anjanapura 60 Feet Road",
    "coordinates": {
      "latitude": 12.8726746,
      "longitude": 77.5663573
    }
  },
  {
    "name": "MedPlus",
    "address": "4th Main Road",
    "coordinates": {
      "latitude": 12.9603343,
      "longitude": 77.7193382
    }
  },
  {
    "name": "Skanda Medicals",
    "address": "7th Main Road",
    "coordinates": {
      "latitude": 12.9350365,
      "longitude": 77.6332951
    }
  },
  {
    "name": "iCure Medicals",
    "address": "4th Main Road",
    "coordinates": {
      "latitude": 12.9352067,
      "longitude": 77.6315454
    }
  },
  {
    "name": "Apollo Pharmacy",
    "address": "Kumarans School Holiday Village Road",
    "coordinates": {
      "latitude": 12.8568366,
      "longitude": 77.5417326
    }
  },
  {
    "name": "Mahadev Medicals",
    "address": "Holiday Village Resort Road, Mallasandra, Bangalore",
    "coordinates": {
      "latitude": 12.8743401,
      "longitude": 77.5417687
    }
  },
  {
    "name": "Lifecare Medicals",
    "address": "Holiday Village Resort Road, Mallasandra, Bangalore",
    "coordinates": {
      "latitude": 12.8696277,
      "longitude": 77.5432027
    }
  },
  {
    "name": "Life Care Medicals",
    "address": "Kanakapura road, Bangalore",
    "coordinates": {
      "latitude": 12.882656,
      "longitude": 77.5466935
    }
  },
  {
    "name": "MedPlus",
    "address": "DRDO Phase 2 Main Road",
    "coordinates": {
      "latitude": 12.9886368,
      "longitude": 77.6842948
    }
  },
  {
    "name": "Sri Lakshminarasimha Drug Centre",
    "address": "Pampa Mahakavi Road",
    "coordinates": {
      "latitude": 12.9571579,
      "longitude": 77.5718768
    }
  },
  {
    "name": "Dhanvantri Medical Stores",
    "address": "Doddabomasandra",
    "coordinates": {
      "latitude": 13.0631437,
      "longitude": 77.5588654
    }
  },
  {
    "name": "Trust Pharmacy Counter CMH",
    "address": "Chinmaya Mission Hospital Road",
    "coordinates": {
      "latitude": 12.9782983,
      "longitude": 77.6459051
    }
  },
  {
    "name": "Shree Ramdev Medicals",
    "address": "Anantha Nagar",
    "coordinates": {
      "latitude": 12.835039,
      "longitude": 77.69384
    }
  },
  {
    "name": "Apollo Pharmacy",
    "address": "Holiday Village Resort Road, Off Kanakapura Road, Mallasandra, Bengaluru - 62",
    "coordinates": {
      "latitude": 12.871679,
      "longitude": 77.5426749
    }
  },
  {
    "name": "Ganesh Medicals",
    "address": "24th Main Road",
    "coordinates": {
      "latitude": 12.9075461,
      "longitude": 77.6490336
    }
  },
  {
    "name": "Pradhan mantri bharatiya jan aushadh kendra",
    "address": "11cross",
    "coordinates": {
      "latitude": 13.0633061,
      "longitude": 77.5895364
    }
  },
  {
    "name": "Sri Balaji Medicals",
    "address": "24th Main Road",
    "coordinates": {
      "latitude": 12.9078609,
      "longitude": 77.6491098
    }
  },
  {
    "name": "Mataji Medical Store",
    "address": "Kaggadasapura Main Road",
    "coordinates": {
      "latitude": 12.9812196,
      "longitude": 77.6800194
    }
  }
]